{
    "type": "FeatureCollection",
    "features": [
        {
            "type": "Feature",
            "geometry": {
                "type": "Point",
                "coordinates": [
                    142.854167,
                    43.663333
                ]
            },
            "properties": {
                "name": "旭岳",
                "type": "top",
                "altitude": "2290.89m",
                "id": "Dds7RvKaxDo",
                "anchor": "left",
                "start": 120
            }
        },
        {
            "type": "Feature",
            "geometry": {
                "type": "Point",
                "coordinates": [
                    142.686389,
                    43.417778
                ]
            },
            "properties": {
                "name": "十勝岳",
                "type": "top",
                "altitude": "2077m",
                "id": "YrNDAPOpPfg",
                "anchor": "right",
                "start": 420
            }
        },
        {
            "type": "Feature",
            "geometry": {
                "type": "Point",
                "coordinates": [
                    140.853889,
                    39.957778
                ]
            },
            "properties": {
                "name": "八幡平&岩手山",
                "type": "top",
                "altitude": "1613.3m",
                "id": "vzHIXB2uygo",
                "anchor": "left",
                "start": 1745
            }
        },
        {
            "type": "Feature",
            "geometry": {
                "type": "Point",
                "coordinates": [
                    141.000833,
                    39.852222
                ]
            },
            "properties": {
                "name": "岩手山",
                "type": "top",
                "altitude": "2038.2m"
            }
        },
        {
            "type": "Feature",
            "geometry": {
                "type": "Point",
                "coordinates": [
                    140.439722,
                    38.143333
                ]
            },
            "properties": {
                "name": "蔵王山",
                "type": "top",
                "altitude": "1841m",
                "id": "WgLlEoqO0i4",
                "anchor": "bottom-right",
                "start": 222
            }
        },
        {
            "type": "Feature",
            "geometry": {
                "type": "Point",
                "coordinates": [
                    139.629167,
                    36.315833
                ]
            },
            "properties": {
                "DisplayName": "三毳山",
                "type": "top",
                "altitude": "229m"
            }
        },
        {
            "type": "Feature",
            "geometry": {
                "type": "Point",
                "coordinates": [
                    138.051667,
                    36.799722
                ]
            },
            "properties": {
                "name": "高妻山",
                "type": "top",
                "altitude": "2353m",
                "id": "Lyz9cRZiDDE",
                "anchor": "bottom-right",
                "start": 678
            }
        },
        {
            "type": "Feature",
            "geometry": {
                "type": "Point",
                "coordinates": [
                    139.243333,
                    35.625
                ]
            },
            "properties": {
                "name": "高尾山",
                "type": "top",
                "altitude": "599.3m",
                "id": "_qwn_0SKLKU",
                "anchor": "left",
                "start": 342
            }
        },
        {
            "type": "Feature",
            "geometry": {
                "type": "Point",
                "coordinates": [
                    137.480278,
                    35.892778
                ]
            },
            "properties": {
                "name": "御嶽山",
                "type": "top",
                "altitude": "3067m",
                "id": "Otq8_vmdGB0",
                "anchor": "top-right",
                "start": 540
            }
        },
        {
            "type": "Feature",
            "geometry": {
                "type": "Point",
                "coordinates": [
                    139.170833,
                    37.001667
                ]
            },
            "properties": {
                "name": "平ヶ岳",
                "type": "top",
                "altitude": "2141m",
                "id": "4BcrnsUno6A",
                "anchor": "top-right",
                "start": 610
            }
        },
        {
            "type": "Feature",
            "geometry": {
                "type": "Point",
                "coordinates": [
                    137.804167,
                    35.789444
                ]
            },
            "properties": {
                "name": "木曽駒ヶ岳",
                "type": "top",
                "altitude": "2956m",
                "id": "Q_zMMupvET8",
                "anchor": "left",
                "start": 455
            }
        },
        {
            "type": "Feature",
            "geometry": {
                "type": "Point",
                "coordinates": [
                    137.589444,
                    36.228333
                ]
            },
            "properties": {
                "name": "焼岳",
                "type": "top",
                "altitude": "2444.3m",
                "id": "B0s4VRYbufs",
                "anchor": "bottom-left",
                "start": 400
            }
        },
        {
            "type": "Feature",
            "geometry": {
                "type": "Point",
                "coordinates": [
                    138.369722,
                    35.970556
                ]
            },
            "properties": {
                "name": "八ヶ岳(赤岳)",
                "type": "top",
                "altitude": "2899.17m",
                "id": "vJ4QxN6GBc0",
                "anchor": "left",
                "start": 705
            }
        },
        {
            "type": "Feature",
            "geometry": {
                "type": "Point",
                "coordinates": [
                    139.001667,
                    34.862778
                ]
            },
            "properties": {
                "name": "天城山",
                "type": "top",
                "altitude": "1406m",
                "id": "sNU00nMqjlI",
                "anchor": "left",
                "start": 290
            }
        },
        {
            "type": "Feature",
            "geometry": {
                "type": "Point",
                "coordinates": [
                    136.108889,
                    34.185278
                ]
            },
            "properties": {
                "name": "大台ヶ原",
                "type": "top",
                "altitude": "1695m",
                "id": "kA-glkg3r5I",
                "anchor": "left",
                "start": 455
            }
        },
        {
            "type": "Feature",
            "geometry": {
                "type": "Point",
                "coordinates": [
                    135.9102,
                    34.1703
                ]
            },
            "properties": {
                "name": "八経ヶ岳",
                "type": "top",
                "altitude": "1915m",
                "id": "5klCsACeLX0",
                "anchor": "bottom-right",
                "start": 535
            }
        },
        {
            "type": "Feature",
            "geometry": {
                "type": "Point",
                "coordinates": [
                    136.406111,
                    35.417778
                ]
            },
            "properties": {
                "name": "伊吹山",
                "type": "top",
                "altitude": "1377.31m",
                "id": "SRhQ5_0UjTQ",
                "anchor": "top-right",
                "start": 305
            }
        },
        {
            "type": "Feature",
            "geometry": {
                "type": "Point",
                "coordinates": [
                    138.583333,
                    35.446667
                ]
            },
            "properties": {
                "name": "竜ヶ岳",
                "type": "top",
                "altitude": "1485m",
                "id": "6zcpaMK9kds",
                "anchor": "right",
                "start": 327
            }
        },
        {
            "type": "Feature",
            "geometry": {
                "type": "Point",
                "coordinates": [
                    138.808889,
                    35.549167
                ]
            },
            "properties": {
                "name": "三ッ峠",
                "type": "top",
                "altitude": "1785m",
                "id": "Nky0_05TH1U",
                "anchor": "top-left",
                "start": 400
            }
        },
        {
            "type": "Feature",
            "geometry": {
                "type": "Point",
                "coordinates": [
                    131.103889,
                    32.884167
                ]
            },
            "properties": {
                "name": "阿蘇山",
                "type": "top",
                "altitude": "1592.3m",
                "id": "0_B7pi2g5Tc",
                "anchor": "right",
                "start": 400
            }
        },
        {
            "type": "Feature",
            "geometry": {
                "type": "Point",
                "coordinates": [
                    131.240833,
                    33.081944
                ]
            },
            "properties": {
                "name": "くじゅう連山",
                "type": "top",
                "altitude": "1786.5m",
                "id": "uTjv0DDg8Hs",
                "anchor": "left",
                "start": 122
            }
        },
        {
            "type": "Feature",
            "geometry": {
                "type": "Point",
                "coordinates": [
                    138.901111,
                    35.450278
                ]
            },
            "properties": {
                "name": "石割山",
                "type": "top",
                "altitude": "1413m"
            }
        },
        {
            "type": "Feature",
            "geometry": {
                "type": "Point",
                "coordinates": [
                    130.528056,
                    31.18
                ]
            },
            "properties": {
                "name": "開聞岳",
                "type": "top",
                "altitude": "924m",
                "id": "w7gWbeNCKUA",
                "anchor": "bottom-left",
                "start": 928
            }
        },
        {
            "type": "Feature",
            "geometry": {
                "type": "Point",
                "coordinates": [
                    127.90849311,
                    26.68706235
                ]
            },
            "properties": {
                "name": "嘉津宇岳",
                "type": "top",
                "id": "KDiyfj0-jXc",
                "anchor": "bottom",
                "start": 259
            }
        },
        {
            "type": "Feature",
            "geometry": {
                "type": "Point",
                "coordinates": [
                    138.140536,
                    36.2313825
                ]
            },
            "properties": {
                "name": "美ヶ原",
                "type": "top",
                "id": "-Au-Dim6trw",
                "anchor": "bottom-left",
                "start": 500
            }
        },
        {
            "type": "Feature",
            "geometry": {
                "type": "Point",
                "coordinates": [
                    138.903077,
                    35.440395
                ]
            },
            "properties": {
                "DisplayName": "石割山",
                "type": "top"
            }
        },
        {
            "type": "Feature",
            "geometry": {
                "type": "Point",
                "coordinates": [
                    138.727363,
                    35.360626
                ]
            },
            "properties": {
                "DisplayName": "富士山",
                "type": "top"
            }
        }
    ]
}